title,category,lat,lng,peopleAffected,severity,resourceShortage,deadlineUrgency,locationPriority
Critical Flood in Zone A,Rescue,22.5726,88.3639,500,9,10,10,5
Water Shortage Sector 5,Logistics,22.5850,88.4350,200,6,8,7,3
Medical Supplies Needed Outpost,Medical,22.5100,88.3100,20,8,9,9,4
Tangled Power Lines Blockade,Infrastructure,22.6200,88.3900,5,3,2,4,1
Mild Food Shortage Shelter 3,Food,22.5400,88.3500,100,4,5,5,2
